City_ID,City,Lat,Lng,Max Temp,Humidity,Cloudiness,Wind Speed,Country,Date
0,blackmans bay,-43.0167,147.3167,19.85,67,26,0.89,AU,1702335030
1,pregradnaya,43.9508,41.1994,7.61,64,100,1.16,RU,1702335031
2,petropavlovsk-kamchatsky,53.0452,158.6483,-9.67,87,40,7.6,RU,1702335033
3,polyarnyy,69.1989,33.4478,-12.96,91,96,6.91,RU,1702335034
4,olonkinbyen,70.9221,-8.7187,-0.06,98,100,6.3,SJ,1702335035
5,albany,42.6001,-73.9662,2.23,73,16,3.58,US,1702335036
6,island harbour,50.724,-1.2758,12.48,93,29,2.24,GB,1702335037
7,hithadhoo,-0.6,73.0833,27.61,78,51,2.76,MV,1702335038
8,papatowai,-46.5619,169.4708,10.17,64,54,9.14,NZ,1702335039
9,eyl,7.9803,49.8164,24.78,72,81,7.52,SO,1702335040
10,stanley,54.868,-1.6985,0.44,97,20,1.54,GB,1702335041
11,wailua homesteads,22.0669,-159.378,27.24,83,40,4.12,US,1702335042
12,tindouf,27.6711,-8.1474,16.25,27,84,2.06,DZ,1702335044
13,ceprano,41.5457,13.5147,14.33,91,98,0.38,IT,1702335045
14,ushuaia,-54.8,-68.3,11.81,40,0,1.54,AR,1702335046
15,bilibino,68.0546,166.4372,-20.27,95,100,1.61,RU,1702335047
16,luderitz,-26.6481,15.1594,18.59,53,0,9.41,NA,1702335048
17,iqaluit,63.7506,-68.5145,-15.15,72,75,4.63,CA,1702335049
18,uturoa,-16.7333,-151.4333,26.96,76,83,9.08,PF,1702335050
19,altamira,-3.2033,-52.2064,24.06,94,99,0.93,BR,1702335051
20,waingapu,-9.6567,120.2641,27.33,80,89,1.48,ID,1702335052
21,margate,51.3813,1.3862,7.61,90,1,0.89,GB,1702335053
22,margaret river,-33.95,115.0667,18.75,61,0,4.32,AU,1702334853
23,ust-nera,64.5667,143.2,-19.5,98,100,3.37,RU,1702335055
24,waitangi,-43.9535,-176.5597,13.79,92,100,3.58,NZ,1702335056
25,kourou,5.1552,-52.6478,28.03,88,93,2.84,GF,1702335057
26,undurkhaan,47.3194,110.6556,-27.88,99,94,0.64,MN,1702335059
27,magadan,59.5667,150.8,-8.96,95,100,3.83,RU,1702335060
28,champerico,14.3,-91.9167,34.3,71,2,2.68,GT,1702335061
29,grytviken,-54.2811,-36.5092,1.79,79,28,4.91,GS,1702335062
30,east london,-33.0153,27.9116,19.36,85,55,1.39,ZA,1702335063
31,west island,-12.1568,96.8225,25.99,73,40,3.09,CC,1702335064
32,port lincoln,-34.7333,135.8667,19.49,57,72,5.91,AU,1702335066
33,edinburgh of the seven seas,-37.0676,-12.3116,13.64,91,100,9.47,SH,1702335067
34,suva,-18.1416,178.4415,26.71,65,20,3.6,FJ,1702334818
35,bethel,41.3712,-73.414,4.73,66,100,4.63,US,1702334970
36,kerrville,30.0474,-99.1403,16.92,30,0,4.12,US,1702335052
37,weyburn,49.6668,-103.8511,-4.88,68,1,12.35,CA,1702335071
38,chonchi,-42.6128,-73.8092,13.95,92,100,2.21,CL,1702335073
39,tazacorte,28.629,-17.9293,20.08,46,0,3.13,ES,1702335074
40,ust'-ilimsk,58.0006,102.6619,-34.85,100,97,0.17,RU,1702335075
41,queenstown,-31.8976,26.8753,14.96,81,40,0.72,ZA,1702335076
42,pangody,65.85,74.4859,-27.21,89,100,5.41,RU,1702335078
43,port-aux-francais,-49.35,70.2167,5.73,98,99,10.77,TF,1702335079
44,arrifes,37.7667,-25.7,12.14,82,20,2.57,PT,1702335081
45,malango,-2.9627,119.9001,21.48,91,82,0.77,ID,1702335082
46,puerto natales,-51.7236,-72.4875,12.25,47,75,8.75,CL,1702335084
47,remire-montjoly,4.9167,-52.2667,28.02,78,20,1.54,GF,1702335086
48,choele choel,-39.2667,-65.6833,31.02,13,64,9.58,AR,1702335087
49,cabo san lucas,22.8909,-109.9124,28.12,61,1,2.04,MX,1702335088
50,kapa'a,22.0752,-159.319,27.99,83,40,4.12,US,1702335089
51,saudarkrokur,65.7461,-19.6394,-3.89,92,100,0.85,IS,1702335090
52,chibougamau,49.9168,-74.3659,-9.21,86,100,4.63,CA,1702335091
53,ilulissat,69.2167,-51.1,2.01,64,100,6.69,GL,1702335093
54,ugoofaaru,5.6667,73.0,25.83,88,95,1.61,MV,1702335094
55,ola,59.5833,151.2833,-7.65,89,100,5.14,RU,1702335095
56,hawaiian paradise park,19.5933,-154.9731,26.13,93,100,2.06,US,1702335096
57,port alfred,-33.5906,26.891,17.88,95,4,2.5,ZA,1702335098
58,broome,42.2506,-75.833,0.95,88,100,4.63,US,1702335099
59,slave lake,55.2834,-114.769,-7.01,58,0,2.57,CA,1702334826
60,avarua,-21.2078,-159.775,26.03,83,100,10.8,CK,1702335101
61,greymouth,-42.4667,171.2,12.62,64,93,8.35,NZ,1702334864
62,jalqani,12.4486,34.2186,26.35,21,56,4.37,SD,1702335103
63,callao,-12.0667,-77.15,21.16,73,40,5.66,PE,1702335089
64,val-d'or,48.1002,-77.7828,-10.95,85,40,2.57,CA,1702335068
65,ribeira grande,38.5167,-28.7,13.21,81,6,2.68,PT,1702335108
66,sumbe,-11.2061,13.8437,25.67,84,100,0.54,AO,1702335109
67,jamestown,42.097,-79.2353,0.77,77,100,6.17,US,1702335110
68,anadyr,64.75,177.4833,-25.56,75,20,4.0,RU,1702335111
69,yellowknife,62.456,-114.3525,-24.71,77,75,2.57,CA,1702334974
70,dolores,-36.3132,-57.6792,18.91,85,95,5.46,AR,1702335113
71,aasiaat,68.7098,-52.8699,-1.0,77,100,5.26,GL,1702335114
72,dudinka,69.4058,86.1778,-24.62,98,100,6.26,RU,1702335116
73,nazareno,25.3833,-103.4167,20.28,28,22,2.18,MX,1702335117
74,enewetak,11.3474,162.3373,27.83,78,14,8.26,MH,1702335118
75,st. john's,47.5649,-52.7093,12.66,95,75,11.32,CA,1702335066
76,college,64.8569,-147.8028,-7.03,79,100,1.54,US,1702335120
77,valparaiso,-33.0393,-71.6273,22.13,61,0,6.69,CL,1702335121
78,punta arenas,-53.15,-70.9167,13.06,44,75,10.29,CL,1702335122
79,kampong thom,12.7111,104.8887,22.6,82,95,2.4,KH,1702335123
80,xalisco,21.4531,-104.8993,23.39,52,30,1.27,MX,1702335125
81,utrik,11.2278,169.8474,27.15,71,21,9.14,MH,1702335126
82,acaponeta,22.4964,-105.3594,29.99,43,4,2.34,MX,1702335128
83,okha,53.5739,142.9478,-20.64,86,62,9.78,RU,1702335129
84,danghara,38.0958,69.34,7.66,88,100,4.63,TJ,1702335130
85,tiksi,71.6872,128.8694,-22.07,99,100,3.67,RU,1702335131
86,invercargill,-46.4,168.35,11.14,53,64,8.94,NZ,1702334870
87,udachny,66.4167,112.4,-24.85,97,100,3.83,RU,1702335133
88,nogliki,51.8333,143.1667,-22.03,93,9,4.02,RU,1702335134
89,smithers,54.7804,-127.1743,-3.82,93,100,1.03,CA,1702335135
90,thompson,55.7435,-97.8558,-12.91,85,100,6.17,CA,1702335136
91,kupang,-10.1667,123.5833,27.32,100,75,1.03,ID,1702335138
92,mitu,1.1983,-70.1733,23.98,96,96,0.43,CO,1702335139
93,ussel,45.55,2.3167,10.49,98,100,3.45,FR,1702335140
94,mudurnu,40.473,31.2076,6.98,85,100,1.04,TR,1702335142
95,adamstown,-25.066,-130.1015,21.7,60,1,1.41,PN,1702335143
96,whitehorse,60.7161,-135.0538,0.43,74,75,8.75,CA,1702335144
97,longyearbyen,78.2186,15.6401,-6.09,68,75,5.14,SJ,1702335145
98,santa maria da vitoria,-13.3947,-44.1886,27.41,45,60,1.49,BR,1702335146
99,pacific grove,36.6177,-121.9166,17.23,67,0,4.02,US,1702335147
100,yatou,37.15,122.3833,1.38,87,100,6.5,CN,1702335150
101,sitka,57.0531,-135.33,6.94,76,100,5.66,US,1702335151
102,cam ranh,11.9214,109.1591,24.98,83,20,3.09,VN,1702335152
103,harstad,68.799,16.5293,-1.58,93,70,1.76,NO,1702335153
104,puerto leguizamo,-0.1934,-74.7819,24.24,94,91,0.94,CO,1702335154
105,port douglas,-16.4833,145.4667,29.93,63,66,2.67,AU,1702335155
106,mount isa,-20.7333,139.5,27.87,34,0,5.66,AU,1702335156
107,georgetown,5.4112,100.3354,26.08,94,20,1.03,MY,1702335086
108,genhe,50.7833,121.5167,-38.19,100,41,0.24,CN,1702335159
109,lukoyanov,55.0277,44.4786,-11.16,94,100,9.04,RU,1702335161
110,afaahiti,-17.75,-149.2833,29.93,79,96,10.1,PF,1702335162
111,gao,16.6362,1.637,18.55,27,0,5.44,ML,1702335163
112,khovd,48.0056,91.6419,-17.15,80,100,0.7,MN,1702335164
113,las lomitas,-24.7096,-60.593,28.09,57,52,2.74,AR,1702335165
114,nemuro,43.3236,145.575,1.96,70,100,7.15,JP,1702335166
115,horta,38.5333,-28.6333,12.79,81,9,2.68,PT,1702335167
116,howrah,22.5892,88.3103,16.0,88,0,2.06,IN,1702335168
117,lihue,21.9789,-159.3672,27.58,78,40,4.12,US,1702335169
118,antalaha,-14.9003,50.2788,23.7,88,12,2.29,MG,1702335170
119,vilyuchinsk,52.9306,158.4028,-8.85,84,17,3.5,RU,1702335171
120,talnakh,69.4865,88.3972,-26.45,98,100,4.67,RU,1702335172
121,hau-ri,41.2006,129.4703,-9.11,95,92,1.16,KP,1702335173
122,manistee,44.2445,-86.3242,-0.55,82,100,5.66,US,1702335174
123,vila velha,-20.3297,-40.2925,26.97,84,20,6.17,BR,1702335054
124,fort st. john,56.2499,-120.8529,-2.06,59,75,8.75,CA,1702335177
125,shuangjiang,26.1547,109.7138,5.5,92,99,2.01,CN,1702335178
126,sittwe,20.15,92.9,19.89,83,9,1.53,MM,1702335179
127,puerto ayora,-0.7393,-90.3518,28.98,79,63,3.56,EC,1702335180
128,fale old settlement,-9.3852,-171.2468,28.79,77,100,9.77,TK,1702335181
129,gobabis,-22.45,18.9667,23.36,11,15,5.45,NA,1702335182
130,badger,64.8,-147.5333,-7.07,84,75,1.54,US,1702335183
131,ulanhot,46.0833,122.0833,-20.91,86,22,0.86,CN,1702335184
132,ifrane,33.3333,-5.25,10.61,50,84,1.28,MA,1702335185
133,macau,22.2006,113.5461,23.17,94,0,3.09,MO,1702335186
134,tazovsky,67.4667,78.7,-25.46,95,100,3.89,RU,1702335123
135,lebu,-37.6167,-73.65,14.73,76,100,2.72,CL,1702335189
136,port elizabeth,-33.918,25.5701,17.95,93,1,4.47,ZA,1702335190
137,tommot,58.9564,126.2925,-29.11,93,100,3.83,RU,1702335192
138,luquillo,18.3725,-65.7166,27.96,86,100,3.6,PR,1702335193
139,klyuchi,52.2667,79.1667,-24.27,87,31,6.4,RU,1702335194
140,arkhangel'sk,64.5401,40.5433,-13.94,77,40,3.0,RU,1702334920
141,kurumkan,54.3,110.3,-26.6,90,21,1.79,RU,1702335196
142,qaqortoq,60.7167,-46.0333,-1.1,96,100,4.76,GL,1702335197
143,tsiombe,-25.3,45.4833,23.89,92,81,1.23,MG,1702335198
144,mount gambier,-37.8333,140.7667,24.42,60,60,3.76,AU,1702335199
145,bredasdorp,-34.5322,20.0403,17.29,85,52,5.76,ZA,1702335200
146,holualoa,19.6228,-155.9522,26.59,80,40,3.6,US,1702335201
147,fenyi,27.8112,114.6681,7.19,86,100,1.43,CN,1702335202
148,leticia,-4.2153,-69.9406,30.03,70,20,1.54,CO,1702335203
149,tomatlan,19.9333,-105.25,31.6,42,5,2.37,MX,1702335204
150,isafjordur,66.0755,-23.124,-4.58,81,91,1.39,IS,1702335205
151,abepura,-2.6333,140.5833,27.45,83,20,2.06,ID,1702335207
152,arraial do cabo,-22.9661,-42.0278,22.98,94,75,0.51,BR,1702335105
153,atafu village,-8.5421,-172.5159,28.53,80,100,11.06,TK,1702335209
154,lincoln city,44.9582,-124.0179,11.51,94,60,3.58,US,1702334931
155,phan rang-thap cham,11.5667,108.9833,21.37,87,91,2.92,VN,1702335211
156,vereshchagino,58.0789,54.6557,-33.53,97,69,2.25,RU,1702335212
157,saipan,15.1355,145.701,28.39,78,40,6.69,MP,1702335213
158,tura,25.5198,90.2201,14.5,89,0,1.44,IN,1702335214
159,arteche,12.2645,125.4048,25.99,89,76,2.59,PH,1702335215
160,yakeshi,49.2833,120.7333,-39.4,100,91,1.15,CN,1702335216
161,butig,7.7244,124.3008,20.46,82,62,1.1,PH,1702335217
162,quellon,-43.1167,-73.6167,11.09,88,100,2.81,CL,1702335218
163,murzuq,25.9155,13.9184,11.99,42,0,2.69,LY,1702335219
164,mahina,-17.5065,-149.489,30.87,62,20,3.6,PF,1702335220
165,happy valley-goose bay,53.3168,-60.3315,-0.83,86,100,1.54,CA,1702335222
166,lazaro cardenas,17.9583,-102.2,29.24,58,78,2.72,MX,1702335223
167,cidade velha,14.9167,-23.6167,24.26,78,22,6.69,CV,1702335224
168,charlotte,35.2271,-80.8431,8.05,64,1,0.45,US,1702334935
169,kimbe,-5.5502,150.1429,28.06,82,95,0.62,PG,1702335226
170,vadso,70.0744,29.7487,-9.91,79,20,4.63,NO,1702335227
171,fort mcmurray,56.7268,-111.381,-9.23,57,0,2.06,CA,1702335228
172,tambura,5.6,27.4667,26.58,45,56,0.61,SS,1702335229
173,keflavik,64.0049,-22.5624,-0.76,74,20,3.09,IS,1702335230
174,sinabang,2.4803,96.3801,25.8,82,98,1.19,ID,1702335232
175,lompoc,34.6391,-120.4579,24.45,61,0,6.17,US,1702335233
176,alice springs,-23.7,133.8833,18.75,42,0,4.12,AU,1702335234
177,carnarvon,-24.8667,113.6333,26.17,31,0,2.88,AU,1702335235
178,glace bay,46.1969,-59.957,14.88,89,100,12.86,CA,1702335012
179,ramhormoz,31.28,49.6035,18.63,35,74,0.55,IR,1702335237
180,santiago,-33.4569,-70.6483,26.69,34,0,6.17,CL,1702335238
181,hermanus,-34.4187,19.2345,16.85,86,70,5.78,ZA,1702335239
182,palikir - national government center,6.9248,158.1611,29.47,79,75,3.6,FM,1702335240
183,la ronge,55.1001,-105.2842,-10.86,62,20,8.75,CA,1702335242
184,kodiak,57.79,-152.4072,0.73,60,20,3.09,US,1702335243
185,haiku-pauwela,20.9219,-156.3051,29.01,62,20,7.2,US,1702335244
186,kuhmo,64.1333,29.5167,-16.65,97,100,1.85,FI,1702335245
187,chernyshevskiy,63.0128,112.4714,-31.13,99,100,1.0,RU,1702335246
188,pemangkat,1.1667,108.9667,25.18,89,100,2.19,ID,1702335247
189,kamin-kashyrskyi,51.6241,24.9586,1.48,100,100,5.0,UA,1702335249
190,kalmunai,7.4167,81.8167,24.71,91,98,2.87,LK,1702335251
191,codrington,-38.2667,141.9667,25.37,60,87,5.5,AU,1702335252
192,la gi,10.6667,107.7833,22.9,84,98,3.52,VN,1702335254
193,hirara,24.8,125.2833,22.15,100,100,9.26,JP,1702335255
194,rongelap,11.1635,166.8941,27.65,77,73,9.01,MH,1702335256
195,shimoda,34.6667,138.95,18.57,96,100,7.18,JP,1702335259
196,porto velho,-8.7619,-63.9039,25.03,94,75,0.0,BR,1702335260
197,rabaul,-4.1967,152.1721,27.71,72,95,0.34,PG,1702335261
198,rye,40.9807,-73.6837,5.66,67,75,6.69,US,1702335263
199,weno,7.4515,151.8468,26.97,94,100,2.06,FM,1702335264
200,kingston,17.997,-76.7936,29.53,72,20,7.2,JM,1702335003
201,livingston,55.9029,-3.5226,6.23,98,75,1.54,GB,1702335266
202,qui nhon,13.7667,109.2333,22.5,88,24,2.35,VN,1702335268
203,kostomuksha,64.571,30.5767,-19.98,100,100,0.89,RU,1702335269
204,soure,-0.7167,-48.5233,27.5,81,65,6.31,BR,1702335270
205,hassi messaoud,31.6804,6.0729,11.92,40,0,1.54,DZ,1702335271
206,youghal,51.95,-7.8506,9.75,100,100,5.75,IE,1702335272
207,ingeniero jacobacci,-41.3427,-69.5448,15.67,40,8,12.73,AR,1702335274
208,segarcea,44.1,23.75,1.48,78,96,0.76,RO,1702335275
209,nova sintra,14.8667,-24.7167,23.11,68,24,7.18,CV,1702335276
210,sao tome,0.3365,6.7273,26.17,83,99,1.96,ST,1702335277
211,el granada,37.5027,-122.4694,18.47,57,0,5.66,US,1702335279
212,hotan,37.0997,79.9269,0.99,33,100,0.91,CN,1702335280
213,mirnyy,62.5353,113.9611,-29.39,96,100,2.67,RU,1702335281
214,taco pozo,-25.6167,-63.2833,30.76,43,75,4.38,AR,1702335282
215,bikenibeu village,1.3673,173.1241,28.53,72,78,1.83,KI,1702335283
216,beaufort west,-32.3567,22.583,19.94,45,0,2.29,ZA,1702335284
217,illizi,26.4833,8.4667,11.89,36,0,2.55,DZ,1702335285
218,ponta delgada,37.7333,-25.6667,13.4,82,20,2.57,PT,1702335286
219,ciudad guadalupe victoria,24.4497,-104.1225,19.38,31,35,1.57,MX,1702335287
220,limbazi,57.5129,24.7194,-1.66,98,100,2.93,LV,1702335288
221,santiago de cao,-7.9589,-79.2392,21.07,78,30,5.66,PE,1702335290
222,svalyava,48.5485,22.9958,1.94,99,100,2.18,UA,1702335291
223,mont-tremblant,46.1949,-74.6264,-3.23,86,100,0.51,CA,1702335120
224,al muwayh,22.4333,41.7583,16.79,20,70,4.6,SA,1702335293
225,sorsk,54.0033,90.2467,-27.82,97,9,1.66,RU,1702335294
226,harpenden,51.8168,-0.3571,8.93,95,75,2.57,GB,1702335295
227,hue,16.4667,107.6,23.06,100,40,1.03,VN,1702335296
228,eagle point,42.4726,-122.8028,12.66,84,75,0.45,US,1702335297
229,borzya,50.3833,116.5167,-33.42,99,50,1.21,RU,1702335298
230,ipu,-4.3222,-40.7108,28.01,51,48,1.61,BR,1702335299
231,tottenham,-32.2333,147.35,31.0,27,20,5.44,AU,1702335300
232,kununurra,-15.7667,128.7333,30.99,62,95,1.03,AU,1702335301
233,primero de mayo,-32.2552,-58.4228,23.11,69,5,3.41,AR,1702335303
234,zhob,31.3411,69.4481,7.83,31,32,2.02,PK,1702335304
235,rio tuba,8.5061,117.4317,27.4,78,38,6.52,PH,1702335305
236,port pirie,-33.1833,138.0167,20.64,57,88,3.97,AU,1702335307
237,huancavelica,-12.7667,-74.9833,7.71,77,84,2.41,PE,1702335308
238,eduardo castex,-35.915,-64.2945,29.84,26,0,6.03,AR,1702335309
239,belmonte,-15.8631,-38.8828,26.16,81,83,5.52,BR,1702335310
240,qamdo,31.1667,97.2333,-10.3,39,1,2.09,CN,1702335312
241,dunedin,-45.8742,170.5036,10.45,70,90,6.71,NZ,1702335313
242,jaguariaiva,-24.2511,-49.7058,18.8,91,79,4.24,BR,1702335314
243,labasa,-16.4167,179.3833,29.6,45,39,1.72,FJ,1702335315
244,burang,30.25,81.1667,-14.91,63,1,1.31,CN,1702335317
245,tropea,38.6754,15.8948,12.61,66,8,1.37,IT,1702335318
246,messini,37.0511,22.0078,12.32,93,4,2.57,GR,1702335319
247,tchintabaraden,15.8969,5.7985,17.27,34,0,6.39,NE,1702335320
248,portland,45.5234,-122.6762,12.34,91,100,2.24,US,1702335028
249,susuman,62.7833,148.1667,-21.68,96,100,2.24,RU,1702335322
250,luena,-11.7833,19.9167,18.1,94,0,0.51,AO,1702335324
251,zunyi,27.6867,106.9072,10.14,92,100,1.68,CN,1702335325
252,lerwick,60.1545,-1.1494,3.0,72,100,3.85,GB,1702335326
253,saldanha,-33.0117,17.9442,18.03,90,63,8.9,ZA,1702335327
254,tuy hoa,13.0833,109.3,22.71,91,52,1.63,VN,1702335329
255,acapulco de juarez,16.8634,-99.8901,28.48,66,98,1.65,MX,1702335319
256,tateyama,34.9833,139.8667,13.96,94,75,0.51,JP,1702335331
257,novoishimskiy,53.1981,66.7694,-30.27,96,27,3.52,KZ,1702335332
258,new glasgow,45.5834,-62.6486,14.32,86,100,14.66,CA,1702335333
259,luang prabang,19.8856,102.1347,20.39,99,14,0.32,LA,1702335335
260,nurota,40.5614,65.6886,-9.86,66,83,5.26,UZ,1702335336
261,sisimiut,66.9395,-53.6735,-0.97,92,100,8.53,GL,1702335337
262,rikaze,29.25,88.8833,-4.62,48,59,0.96,CN,1702335338
263,dien bien phu,21.3833,103.0167,18.95,96,3,0.62,VN,1702335339
264,sault ste. marie,46.5168,-84.3333,-1.69,74,75,4.12,CA,1702335263
265,tolanaro,-25.0319,46.9987,26.04,94,20,6.17,MG,1702335342
266,serenje,-13.2325,30.2352,17.1,92,75,1.05,ZM,1702335343
267,san martin jilotepeque,14.7878,-90.7925,17.99,83,62,2.83,GT,1702335344
268,kamikawa,43.84,142.7711,-5.44,83,100,0.64,JP,1702335345
269,aykhal,66.0,111.5,-26.03,98,100,2.04,RU,1702335346
270,monroeville,40.4212,-79.7881,1.14,64,100,2.06,US,1702335347
271,pisco,-13.7,-76.2167,22.03,73,0,10.29,PE,1702335348
272,idrinskoye,54.3708,92.1358,-36.14,99,53,0.58,RU,1702335349
273,nova vicosa,-17.8919,-39.3719,25.68,82,81,7.74,BR,1702335350
274,ebon,4.582,168.6964,27.06,85,92,8.78,MH,1702335351
275,sawa sawa,-4.4717,39.4846,25.36,85,91,1.26,KE,1702335353
276,ingeniero guillermo n. juarez,-23.9,-61.85,30.29,53,61,2.49,AR,1702335354
277,sambava,-14.2667,50.1667,24.49,90,35,3.74,MG,1702335355
278,zawoja,49.644,19.5423,3.48,31,95,4.82,PL,1702335356
279,lemoore,36.3008,-119.7829,17.04,46,0,3.09,US,1702335357
280,siwa oasis,29.2041,25.5195,14.02,78,86,1.93,EG,1702335358
281,tobol'sk,58.2,68.2667,-29.11,97,6,2.68,RU,1702335360
282,lamu,-2.2717,40.902,26.12,87,94,3.17,KE,1702335264
283,woolgoolga,-30.1106,153.2007,26.69,67,25,1.81,AU,1702335362
284,dunay,42.8803,132.3375,-12.38,63,84,11.52,RU,1702335363
285,whakatane,-37.9585,176.9854,21.05,61,3,3.58,NZ,1702335365
286,yacuiba,-22.038,-63.6797,27.89,58,91,3.85,BO,1702335366
287,bardai,11.65,7.2333,15.46,31,0,4.27,NG,1702335367
288,jinjiang,24.8198,118.5741,20.57,83,60,6.58,CN,1702335368
289,bandon,51.7469,-8.7425,9.77,91,100,4.7,IE,1702335371
290,dryden,49.7833,-92.7503,-5.84,93,100,6.17,CA,1702335372
291,safford,32.834,-109.7076,16.53,14,0,2.57,US,1702335374
292,vorgashor,67.5833,63.95,-18.23,89,100,6.25,RU,1702335375
293,kpandae,8.4689,-0.0113,26.28,19,2,1.18,GH,1702335376
294,st. paul,44.9444,-93.0933,0.99,83,0,3.09,US,1702335236
295,pullman,46.7313,-117.1796,6.13,94,100,0.0,US,1702335379
296,haldensleben i,52.2891,11.4098,10.57,84,96,6.41,DE,1702335380
297,corinto,37.9407,22.9573,9.38,82,11,1.98,GR,1702335382
298,uray,60.1247,64.7758,-32.85,96,68,0.89,RU,1702335383
299,prado,-17.3411,-39.2208,25.51,83,86,6.48,BR,1702335385
300,tadine,-21.55,167.8833,24.74,62,95,6.58,NC,1702335386
301,brisas de zicatela,15.8369,-97.0419,29.29,58,40,1.54,MX,1702335387
302,albunol,36.792,-3.205,18.1,48,80,1.34,ES,1702335388
303,hastings,50.8552,0.5729,10.85,96,8,4.53,GB,1702335390
304,bodaybo,57.8506,114.1933,-28.21,99,100,0.38,RU,1702335391
305,cockburn town,21.4612,-71.1419,25.98,78,40,6.17,TC,1702335392
306,brownsfield,30.5466,-91.1207,14.89,43,5,0.56,US,1702335393
307,aksuat,48.7167,83.7,-11.69,94,100,1.63,KZ,1702335394
308,flin flon,54.7682,-101.865,-9.09,62,75,7.72,CA,1702335395
309,sampit,-2.5333,112.95,24.63,96,60,0.32,ID,1702335397
310,khamanon kalan,30.8186,76.3508,10.91,40,0,1.97,IN,1702335398
311,pedernales,18.0384,-71.744,26.59,73,1,4.49,DO,1702335399
312,zeribet el oued,34.6828,6.5111,15.05,54,0,1.17,DZ,1702335400
313,eenhana,-17.4667,16.3333,25.48,33,44,2.72,NA,1702335135
314,toliara,-23.35,43.6667,25.06,71,58,2.59,MG,1702335403
315,crane,31.3974,-102.3501,16.15,18,11,2.86,US,1702335404
316,east ballina,-28.8667,153.5833,26.0,61,79,1.52,AU,1702335405
317,powell river,49.8496,-124.5361,6.22,93,100,2.06,CA,1702335406
318,pionerskiy,54.9508,20.2275,0.42,89,100,1.87,RU,1702335407
319,vilhena,-12.7406,-60.1458,23.12,100,0,3.6,BR,1702335408
320,zhigalovo,54.8097,105.1578,-36.55,100,29,0.21,RU,1702335409
321,sitangkai,4.6628,119.3928,27.74,79,58,4.25,PH,1702335410
322,nuuk,64.1835,-51.7216,0.17,95,100,13.13,GL,1702335411
323,ubinskoye,55.3068,79.6802,-29.59,93,6,5.21,RU,1702335412
324,saint-louis,16.3333,-15.0,23.8,16,69,4.25,SN,1702335413
325,la passe,45.5549,-0.8967,14.13,88,100,5.34,FR,1702335414
326,tromso,69.6496,18.957,-2.99,86,40,4.12,NO,1702335415
327,puerto baquerizo moreno,-0.9,-89.6,26.55,78,75,4.12,EC,1702335416
328,hadibu,12.65,54.0333,24.33,70,64,4.6,YE,1702335418
329,yuzhno-kurilsk,44.0306,145.8556,0.76,76,100,4.36,RU,1702335419
330,chamical,-30.36,-66.314,31.17,37,0,11.09,AR,1702335421
331,sallisaw,35.4604,-94.7875,15.82,28,0,0.0,US,1702335422
332,galliano,29.4422,-90.2992,15.0,41,0,0.0,US,1702335423
333,savanna-la-mar,18.219,-78.1332,27.97,80,96,1.13,JM,1702335424
334,port hedland,-20.3167,118.5667,23.03,60,0,0.0,AU,1702335425
335,isangel,-19.55,169.2667,26.06,65,75,3.09,VU,1702335427
336,muroto-misakicho,33.2833,134.15,18.72,89,53,4.68,JP,1702335428
337,labytnangi,66.6572,66.4183,-26.93,98,100,3.32,RU,1702335429
338,formosa do rio preto,-11.0483,-45.1931,27.88,42,99,1.37,BR,1702335430
339,villa la angostura,-40.7617,-71.6463,9.71,91,100,3.39,AR,1702335432
340,bac lieu,9.285,105.7244,24.61,91,79,4.81,VN,1702335433
341,usinsk,65.9939,57.5281,-18.24,94,100,12.2,RU,1702335434
342,ruidoso,33.3317,-105.673,12.81,16,0,0.0,US,1702335436
343,terme,41.2092,36.9739,11.96,91,100,1.74,TR,1702335437
344,altai,46.3722,96.2583,-14.4,89,71,0.74,MN,1702335438
345,mar del plata,-38.0023,-57.5575,22.68,87,0,14.75,AR,1702335440
346,clorinda,-25.2848,-57.7185,30.34,74,2,2.02,AR,1702335441
347,saint-philippe,-21.3585,55.7679,22.77,81,61,4.62,RE,1702335442
348,ghat,24.9647,10.1728,12.22,37,0,1.44,LY,1702335443
349,ghardaia,32.4909,3.6735,17.64,34,0,0.0,DZ,1702335444
350,yemetsk,63.4721,41.7941,-11.03,94,100,3.99,RU,1702335446
351,flying fish cove,-10.4217,105.6791,23.82,88,40,2.57,CX,1702335447
352,coquimbo,-29.9533,-71.3436,17.85,72,20,5.66,CL,1702334992
353,la romana,18.4273,-68.9728,29.2,70,20,2.57,DO,1702335449
354,labrador city,52.9463,-66.9114,-6.05,93,100,1.54,CA,1702335450
355,nizhnevartovsk,60.9344,76.5531,-34.99,75,75,2.0,RU,1702335451
356,knyaze-volkonskoye,48.4642,135.4567,-23.81,95,10,4.29,RU,1702335453
357,skhira,34.2992,10.07,12.82,46,4,5.99,TN,1702335454
358,zabol,32.25,67.25,1.76,49,6,2.81,AF,1702335455
359,hecun,36.5333,114.1111,-8.22,96,53,1.67,CN,1702335456
360,dergachi,51.2328,48.7659,-13.31,49,100,9.1,RU,1702335457
361,sao joao da barra,-21.6403,-41.0511,25.05,93,100,4.18,BR,1702335458
362,mana,5.6592,-53.7767,26.08,88,85,3.79,GF,1702335460
363,minot air force base,48.4209,-101.3391,-2.9,67,20,12.86,US,1702335461
364,laminusa,5.5549,120.9136,27.71,78,26,2.65,PH,1702335462
365,zhytkavichy,52.2168,27.8561,0.95,97,100,4.04,BY,1702335441
366,kayangel,8.0823,134.7173,28.41,76,50,6.3,PW,1702335466
367,puerto santa,-8.9906,-78.6456,20.5,83,11,4.64,PE,1702335467
368,astrakhan,46.3497,48.0408,-7.07,68,0,11.0,RU,1702335468
369,griffith,41.5284,-87.4237,1.96,73,0,2.57,US,1702335469
370,newnham,-41.3833,147.1333,20.37,68,99,1.54,AU,1702335470
371,khanabad,36.6825,69.1156,8.85,73,97,1.24,AF,1702335471
372,skeldon,5.8833,-57.1333,24.85,91,37,2.31,GY,1702335472
373,san luis,-33.295,-66.3356,28.96,34,0,7.14,AR,1702335330
374,redcliff,-19.0333,29.7833,19.29,91,91,3.06,ZW,1702335474
375,ichinohe,40.2069,141.3017,1.43,99,100,1.2,JP,1702335477
376,fortaleza,-3.7227,-38.5247,28.93,76,0,4.63,BR,1702335479
377,sos'va,59.1766,61.8558,-28.55,87,98,3.66,RU,1702335480
378,wynyard,-41.0,145.7167,18.19,73,100,3.36,AU,1702335482
379,klein schwulper,52.3415,10.429,8.55,88,75,5.14,DE,1702335483
380,sultanah,24.4926,39.5857,22.25,16,0,2.57,SA,1702335484
381,mountain home,43.133,-115.6912,3.97,83,100,0.89,US,1702335242
382,bonthe,7.5264,-12.505,26.66,81,4,2.61,SL,1702335487
383,tanjung pandan,-2.75,107.65,26.36,84,96,2.17,ID,1702335488
384,port mathurin,-19.6833,63.4167,25.89,76,90,2.39,MU,1702335489
385,selkirk,50.1436,-96.8845,-2.7,74,57,2.68,CA,1702335491
386,kilifi,-3.6305,39.8499,25.63,86,96,1.72,KE,1702335492
387,gadzhiyevo,69.2551,33.3362,-13.6,92,94,7.27,RU,1702335493
388,puerto aysen,-45.4,-72.7,10.41,94,97,2.09,CL,1702335495
389,kristiansund,63.1115,7.732,-2.64,80,0,1.54,NO,1702335496
390,san julian,21.0167,-102.1667,10.24,82,100,3.26,MX,1702335497
391,ailuk,10.2197,169.9797,27.48,66,71,8.62,MH,1702335498
392,bengkulu,-3.8004,102.2655,23.58,93,99,1.31,ID,1702335500
393,vila franca do campo,37.7167,-25.4333,13.23,82,100,2.49,PT,1702335501
394,kasungu,-13.0333,33.4833,22.05,76,96,3.36,MW,1702335502
395,itaituba,-4.2761,-55.9836,23.58,99,100,0.94,BR,1702335503
396,makokou,0.5738,12.8642,21.6,98,100,1.08,GA,1702335505
397,melo,-32.3667,-54.1833,19.86,83,52,5.87,UY,1702335442
398,kluang,2.0251,103.3328,23.32,97,80,1.49,MY,1702335509
399,azare,11.6765,10.1948,16.72,28,0,3.79,NG,1702335511
400,tshabong,-26.05,22.45,22.01,21,0,4.19,BW,1702335512
401,yarmouth,41.7057,-70.2286,7.2,73,0,12.07,US,1702335513
402,iskateley,67.6803,53.1512,-14.26,91,100,8.12,RU,1702335514
403,matthew town,20.95,-73.6667,26.89,82,22,6.78,BS,1702335516
404,new ross,52.3967,-6.9367,10.78,1,99,4.21,IE,1702335517
405,miri,4.4148,114.0089,25.08,94,20,2.06,MY,1702335518
406,pandan,14.0453,124.1694,26.56,85,69,3.56,PH,1702335520
407,rakops,-21.0167,24.3333,26.52,53,26,2.7,BW,1702335521
408,uacu cungo,-11.3634,15.1208,17.19,99,100,0.15,AO,1702335525
409,kizilcahamam,40.4697,32.6506,5.04,94,100,1.17,TR,1702335526
410,sandnessjoen,66.0217,12.6316,-15.71,76,2,6.38,NO,1702335527
411,tozkhurmato,34.8905,44.6299,18.81,32,100,1.98,IQ,1702335528
412,greenville,35.6127,-77.3663,7.09,78,40,0.0,US,1702335302
413,maloye ganyushkino,46.6,49.2667,-3.71,56,90,11.39,KZ,1702335531
414,al bawiti,28.3492,28.8659,13.07,60,0,1.93,EG,1702335532
415,brokopondo,4.75,-55.1667,27.33,75,95,2.27,SR,1702335533
416,plesetsk,62.708,40.2916,-10.61,94,100,3.77,RU,1702335534
417,umba,66.6871,34.3429,-16.67,99,100,1.59,RU,1702335535
418,isla vista,34.4133,-119.861,24.99,38,0,3.09,US,1702335236
419,balaipungut,1.05,101.2833,23.55,98,100,1.42,ID,1702335537
420,merizo village,13.2658,144.6691,29.43,85,51,6.68,GU,1702335538
421,san marcos,33.1434,-117.1661,25.5,30,0,1.79,US,1702335539
422,onega,63.9061,38.1404,-11.41,94,100,3.7,RU,1702335540
423,katsuren-haebaru,26.3369,127.8719,22.43,93,100,3.6,JP,1702335542
424,san antonio de pale,-1.4014,5.6325,26.0,84,100,4.03,GQ,1702335544
425,bedarieux,43.6155,3.1571,11.51,90,100,1.91,FR,1702335314
426,riverton,40.5219,-111.9391,8.36,54,0,2.68,US,1702335547
427,hamilton,39.1834,-84.5333,3.97,68,0,3.6,US,1702335024
428,dubbo,-32.25,148.6167,27.07,50,0,6.69,AU,1702335532
429,teguise,29.0605,-13.564,20.12,28,87,3.6,ES,1702335550
430,cedeira,43.6797,-8.0209,16.88,76,100,9.33,ES,1702335552
431,lospalos,-8.5186,127.0025,24.14,85,100,1.43,TL,1702335553
432,leava,-14.3,-178.1667,26.81,61,76,3.96,WF,1702335554
433,conception bay south,47.4999,-52.9981,12.53,95,100,11.47,CA,1702335555
434,tual,-5.6667,132.75,28.84,75,99,4.04,ID,1702335556
435,aketi,2.7388,23.7833,24.95,83,100,1.22,CD,1702335558
436,ancud,-41.8697,-73.8203,11.8,82,100,5.31,CL,1702335559
437,kone,-21.0595,164.8658,29.43,44,82,1.52,NC,1702335560
438,parabel',58.6978,81.4825,-30.61,95,79,2.24,RU,1702335561
439,bhitarwar,25.8,78.1167,14.57,55,0,1.36,IN,1702335562
440,tamanrasset,22.785,5.5228,13.95,21,0,3.09,DZ,1702335564
441,guanare,9.0418,-69.7421,26.99,67,6,1.53,VE,1702335565
442,deoria,26.5047,83.7872,13.41,40,0,1.87,IN,1702335566
443,twon-brass,4.3151,6.2418,27.81,75,18,4.61,NG,1702335568
444,port saint john's,-31.6229,29.5448,20.19,87,99,1.93,ZA,1702335569
445,ad dilam,23.9915,47.1627,17.23,25,23,2.65,SA,1702335570
446,sinop,41.7711,34.8709,7.16,82,99,1.24,TR,1702335571
447,kavieng,-2.5744,150.7967,28.34,80,96,4.37,PG,1702335572
448,bejaia,36.7559,5.0843,12.6,82,0,1.03,DZ,1702335574
449,inhambane,-23.865,35.3833,25.63,95,100,4.1,MZ,1702335575
450,victoria point,-27.5833,153.3,27.26,59,89,0.89,AU,1702335576
451,cienfuegos,22.1461,-80.4356,27.08,69,84,3.09,CU,1702335577
452,saynshand,44.8824,110.1163,-13.94,92,100,4.13,MN,1702335579
453,novyy urgal,51.0736,132.5642,-32.7,99,34,0.96,RU,1702335580
454,pitea,65.3172,21.4794,-7.95,97,94,2.62,SE,1702335581
455,pokhara,28.2333,83.9833,13.55,57,92,1.24,NP,1702335582
456,sur,22.5667,59.5289,22.83,63,44,1.03,OM,1702335583
457,bel ombre,-4.6167,55.4167,25.91,89,40,2.57,SC,1702335584
458,constantia,44.1833,28.65,2.61,81,38,3.8,RO,1702335547
459,skelleftea,64.7507,20.9528,-6.8,100,100,2.57,SE,1702335586
460,shendi,16.6915,33.4341,23.57,16,49,4.23,SD,1702335587
461,umluj,25.0213,37.2685,25.02,70,100,3.89,SA,1702335588
462,shanhaiguan,39.9988,119.7564,-10.55,55,40,2.82,CN,1702335590
463,palanga,55.9175,21.0686,0.01,93,100,2.57,LT,1702335433
464,bubaque,11.2833,-15.8333,28.02,63,2,5.42,GW,1702335592
465,manta,-0.95,-80.7333,26.88,83,75,4.92,EC,1702335593
466,brookings,44.3114,-96.7984,4.0,64,0,5.14,US,1702335437
467,toma,12.7667,-2.8833,21.8,17,0,4.25,BF,1702335596
468,souillac,-20.5167,57.5167,25.21,78,40,2.57,MU,1702335597
469,bamboo flat,11.7,92.7167,27.05,83,40,0.51,IN,1702335598
470,opuwo,-18.0607,13.84,22.99,31,75,2.46,NA,1702335599
471,minas,-34.3759,-55.2377,20.17,74,83,7.13,UY,1702335600
472,touros,-5.1989,-35.4608,27.2,77,0,9.22,BR,1702335601
473,sanctuary point,-35.1114,150.629,28.32,61,100,1.58,AU,1702335605
474,tricesimo,46.1672,13.2014,8.16,88,100,2.35,IT,1702335608
475,saint-mandrier-sur-mer,43.078,5.929,15.85,82,0,2.57,FR,1702335609
476,shakawe,-18.3667,21.85,23.76,60,57,2.91,BW,1702335612
477,kirkland lake,48.1446,-80.0377,-8.84,79,63,1.54,CA,1702335390
478,bechar,31.6167,-2.2167,11.18,46,0,0.0,DZ,1702335614
479,port-vila,-17.7338,168.3219,26.78,57,75,5.14,VU,1702335616
480,saint-joseph,-21.3667,55.6167,22.48,89,18,2.37,RE,1702335617
481,westport,41.1415,-73.3579,5.31,65,7,4.92,US,1702335618
482,aldinga beach,-35.2793,138.4604,20.11,93,100,5.6,AU,1702335620
483,hami,42.8,93.45,-2.95,64,100,1.95,CN,1702335623
484,lago da pedra,-4.3333,-45.1667,25.81,79,100,1.71,BR,1702335625
485,colonia,50.9333,6.95,9.42,80,66,4.16,DE,1702335616
486,hasaki,35.7333,140.8333,10.22,89,100,9.94,JP,1702335627
487,uzgen,40.7699,73.3007,-0.84,99,100,2.97,KG,1702335629
488,viitasaari,63.0667,25.8667,-14.14,97,100,2.02,FI,1702335630
489,matoury,4.8483,-52.3317,27.98,78,20,1.54,GF,1702335631
490,vilyuysk,63.7553,121.6247,-26.94,97,100,2.66,RU,1702335632
491,yanjiang,30.1211,104.6481,10.0,80,26,1.68,CN,1702335432
492,palmer,42.1584,-72.3287,4.36,63,40,9.26,US,1702335635
493,sharkan,57.2989,53.8712,-27.97,96,89,3.83,RU,1702335636
494,wajir,1.7471,40.0573,26.66,68,98,5.41,KE,1702335637
495,taitung city,22.7583,121.1444,22.15,100,40,2.06,TW,1702335638
496,cidreira,-30.1811,-50.2056,20.82,83,3,5.22,BR,1702335640
497,pudozh,61.8099,36.5345,-10.59,92,100,3.13,RU,1702335641
498,kerikeri,-35.2268,173.9474,19.95,65,41,0.45,NZ,1702335642
499,qarqin,37.4185,66.0436,6.33,45,61,5.88,AF,1702335643
500,gbadolite,4.2833,21.0167,23.08,54,100,0.47,CD,1702335644
501,caconda,-13.7333,15.0667,16.87,94,100,1.4,AO,1702335646
502,kokuy,52.2037,117.5529,-35.68,100,64,0.37,RU,1702335647
503,sola,-13.8833,167.55,26.46,62,99,7.21,VU,1702335648
504,swan hill,-35.3378,143.5544,33.71,22,87,7.06,AU,1702335439
505,antsiranana,-12.2787,49.2917,25.41,81,19,4.16,MG,1702335651
506,cherepovets,59.1333,37.9,-7.34,94,100,7.18,RU,1702335654
507,cova figueira,14.8905,-24.2934,23.68,59,6,6.94,CV,1702335656
508,poletayevo,55.0336,61.1138,-35.1,97,43,2.8,RU,1702335658
509,munnerstadt,50.25,10.1833,9.75,83,95,4.45,DE,1702335659
510,fortuna,40.5982,-124.1573,16.63,86,0,5.14,US,1702335665
511,kalymnos,36.95,26.9833,14.74,72,40,3.09,GR,1702335668
512,acara,-1.9608,-48.1967,26.44,77,95,1.2,BR,1702335671
513,jogeva,58.7467,26.3939,-3.95,96,100,3.23,EE,1702335673
514,ulladulla,-35.35,150.4667,25.98,76,97,1.38,AU,1702335674
515,mogocha,53.7333,119.7667,-35.06,98,6,1.31,RU,1702335675
516,alofi,-19.0595,-169.9187,26.94,78,75,3.09,NU,1702335676
517,tadmur,34.5608,38.2805,12.53,82,32,1.68,SY,1702335678
518,usogorsk,63.4106,48.6872,-15.74,92,100,5.14,RU,1702335680
519,newman,37.3138,-121.0208,16.8,48,96,0.89,US,1702335384
520,tangalle,6.024,80.7911,23.83,91,86,1.55,LK,1702335683
521,sedan,49.6667,5.0,7.29,98,92,1.85,FR,1702335684
522,mairi,-11.7114,-40.1489,25.96,53,67,6.97,BR,1702335686
523,ardakan,32.31,54.0175,11.07,36,89,2.4,IR,1702335688
524,al jubayl,27.0112,49.6583,22.36,61,53,2.36,SA,1702335689
525,muli,2.9167,73.5667,28.16,73,70,3.41,MV,1702335691
526,prince rupert,54.3161,-130.3201,4.83,78,0,7.72,CA,1702335616
527,belyy yar,53.6039,91.3903,-36.06,75,58,0.0,RU,1702335694
528,bhadra,29.1167,75.1667,14.43,30,7,2.87,IN,1702335696
529,kikinda,45.8297,20.4653,5.51,96,100,2.96,RS,1702335698
530,ceiba,18.4463,-66.3507,27.96,87,17,1.34,PR,1702335699
531,patterson,37.4716,-121.1297,16.17,48,98,3.02,US,1702335605
532,polygyros,40.3744,23.4383,8.14,63,53,0.69,GR,1702335702
533,jian'ou,27.0469,118.3253,15.65,93,95,1.45,CN,1702335703
534,moram,17.8,76.4667,17.99,63,49,4.23,IN,1702335704
535,mhangura,-16.8939,30.1683,22.11,61,62,0.24,ZW,1702335705
536,jayapura,-2.5333,140.7,27.66,78,100,2.76,ID,1702335707
537,coracao de jesus,-16.6853,-44.365,27.46,31,89,1.46,BR,1702335709
538,al hufuf,25.3646,49.5653,15.19,41,0,0.0,SA,1702335710
539,chiang klang,19.2938,100.8617,21.02,96,24,0.55,TH,1702335711
540,mwinilunga,-11.7358,24.4293,17.96,97,100,0.56,ZM,1702335712
541,odessa,46.4775,30.7326,2.09,88,51,2.99,UA,1702335620
542,sabang,5.8933,95.3214,27.08,78,90,1.62,ID,1702335714
543,zhezqazghan,47.7833,67.7667,-23.48,67,6,8.52,KZ,1702335715
544,minas de marcona,-15.2119,-75.1103,17.32,76,10,6.03,PE,1702335716
545,tharyarwady,17.65,95.8,22.08,91,4,2.33,MM,1702335718
546,zouerate,22.7187,-12.4521,18.05,20,0,3.89,MR,1702335719
547,keelung,25.1283,121.7419,22.81,92,100,5.82,TW,1702335713
548,manokwari,-0.8667,134.0833,27.53,73,100,2.23,ID,1702335721
549,formosa,-26.1775,-58.1781,30.99,51,20,3.09,AR,1702335723
550,bemidji,47.4736,-94.8803,-3.86,92,100,7.72,US,1702335724
551,arroio grande,-32.2375,-53.0869,19.97,84,71,5.12,BR,1702335726
552,mbala,-8.8402,31.3659,16.89,91,100,1.12,ZM,1702335727
553,shipunovo,52.1582,82.2173,-25.21,89,37,5.69,RU,1702335728
554,jetiba,-20.05,-40.6667,22.27,86,99,1.34,BR,1702335730
555,mejit,10.2753,170.8646,27.07,71,30,8.45,MH,1702335731
556,mil'kovo,55.6078,37.7956,-6.48,93,100,6.51,RU,1702335733
557,armacao de buzios,-22.7469,-41.8817,25.03,93,99,4.18,BR,1702335734
558,sept-iles,50.2001,-66.3821,-0.71,97,100,4.63,CA,1702335736
559,hays,30.0502,-98.0336,16.99,35,1,0.45,US,1702335737
560,bidar,17.9,77.55,16.5,66,50,2.59,IN,1702335738
561,carlos chagas,-17.7031,-40.7664,25.31,61,78,6.81,BR,1702335740
